{"type":"FeatureCollection","features":[{"type":"Feature","id":"1","geometry":{"type":"Point","coordinates":[-8225901.570409151,4992156.62272557]},"properties":{"zip":"10458","hours":"Mon, Tue, Wed, Thu, Fri, Sat: 9:00am - 9:00pm<br>Sun: 12:00pm - 6:00pm","address2":"(at Kingsbridge and Briggs)","city":"Bronx","address1":"310 East Kingsbridge Road","name":"Bronx - Bronx Library Center","type":"permanent"}},{"type":"Feature","id":"101","geometry":{"type":"Point","coordinates":[-8225544.812564984,4986446.02833118]},"properties":{"zip":"10459","hours":"","address2":"","city":"Bronx","address1":"1046 Southern Boulevard","name":"Popular Community Bank","type":"financial"}},{"type":"Feature","id":"56","geometry":{"type":"Point","coordinates":[-8217771.511021172,4986659.351216891]},"properties":{"zip":"10465","hours":"","address2":"","city":"Bronx","address1":"3770 East Tremont Avenue","name":"Amalgamated Bank","type":"financial"}},{"type":"Feature","id":"98","geometry":{"type":"Point","coordinates":[-8221012.76934074,4987540.873767523]},"properties":{"zip":"10462","hours":"","address2":"","city":"Bronx","address1":"1170 Castle Hill Avenue","name":"Popular Community Bank","type":"financial"}},{"type":"Feature","id":"25","geometry":{"type":"Point","coordinates":[-8224094.793949205,4990241.093151971]},"properties":{"zip":"10460","address2":"","city":"Bronx","address1":"2300 Southern Blvd","name":"Wildlife Conservation Society / Bronx Zoo","type":"cultural"}},{"type":"Feature","id":"23","geometry":{"type":"Point","coordinates":[-8224029.08922474,4992351.335010285]},"properties":{"zip":"10458","address2":"","city":"Bronx","address1":"2900 Southern Blvd","name":"New York Botanical Garden","type":"cultural"}},{"type":"Feature","id":"99","geometry":{"type":"Point","coordinates":[-8225329.933950295,4989399.37636295]},"properties":{"zip":"10457","hours":"","address2":"","city":"Bronx","address1":"752 East Tremont Avenue ","name":"Popular Community Bank","type":"financial"}},{"type":"Feature","id":"90","geometry":{"type":"Point","coordinates":[-8218360.755377089,4994635.985170382]},"properties":{"zip":"10475","hours":"","address2":"","city":"Bronx","address1":"755 Co-op City Boulevard","name":"Municipal Credit Union","type":"financial"}},{"type":"Feature","id":"55","geometry":{"type":"Point","coordinates":[-8218583.295586635,4993226.194797142]},"properties":{"zip":"10475","hours":"","address2":"","city":"Bronx","address1":"2067 Bartow Avenue","name":"Amalgamated Bank","type":"financial"}},{"type":"Feature","id":"48","geometry":{"type":"Point","coordinates":[-8220202.202545177,4975133.970825948]},"properties":{"zip":"11368","address2":"","city":"Queens","address1":"14 United Nations Ave S","name":"Queens Theatre in the Park","type":"cultural"}},{"type":"Feature","id":"123","geometry":{"type":"Point","coordinates":[-8223356.887729812,4975881.236964704]},"properties":{"zip":"11368","hours":"","address2":"","city":"Corona ","address1":"35-30 Junction Boulevard","name":"Popular Community Bank","type":"financial"}},{"type":"Feature","id":"41","geometry":{"type":"Point","coordinates":[-8218719.424504833,4977578.771370629]},"properties":{"zip":"11354","address2":"","city":"Flushing","address1":"137-35 Northern Blvd","name":"Flushing Town Hall","type":"cultural"}},{"type":"Feature","id":"122","geometry":{"type":"Point","coordinates":[-8224545.930200379,4975158.947286812]},"properties":{"zip":"11373","hours":"","address2":"","city":"Elmhurst ","address1":"83-22 Baxter Avenue","name":"Popular Community Bank","type":"financial"}},{"type":"Feature","id":"46","geometry":{"type":"Point","coordinates":[-8218688.347717242,4975572.766894505]},"properties":{"zip":"11355","address2":"","city":"Flushing","address1":"43-50 Main St","name":"Queens Botanical Garden","type":"cultural"}},{"type":"Feature","id":"20","geometry":{"type":"Point","coordinates":[-8223615.257412831,4975304.856683895]},"properties":{"zip":"11372","hours":"Mon, Tue, Wed, Thu, Fri: 10:00am - 8:00pm<br>Sat: 9:30am - 2:30pm","address2":"(at 92nd St and Elmhurst Ave)","city":"Jackson Heights","address1":"92-10 Roosevelt Ave","name":"Queens - Make the Road New York","type":"permanent"}},{"type":"Feature","id":"18","geometry":{"type":"Point","coordinates":[-8218596.988895627,4976685.830638017]},"properties":{"zip":"11355","hours":"Mon, Wed, Thu: 9:00am - 9:00pm<br>Tue: 1:00pm - 9:00pm<br>Fri, Sat: 9:00am - 7:00pm<br>Sun: 12:00pm - 5:00pm","address2":"(at 41st Rd and Main St)","city":"Flushing","address1":"41-17 Main St","name":"Queens - Flushing Library","type":"permanent"}},{"type":"Feature","id":"17","geometry":{"type":"Point","coordinates":[-8223389.837015123,4976155.155828413]},"properties":{"zip":"11372","hours":"Mon, Tue, Wed, Thu: 8:30am - 7:00pm<br>Fri: 8:30am - 5:00pm <br>Sat: 8:30am - 4:30pm","address2":"(at 34th Road and Junction Blvd)","city":"Jackson Heights","address1":"34-33 Junction Blvd., Lower Level","name":"Queens - DOHMH Corona IDNYC Center","type":"permanent"}},{"type":"Feature","id":"13","geometry":{"type":"Point","coordinates":[-8230920.148581415,4988650.009708073]},"properties":{"zip":"10032","hours":"Mon, Tue, Fri: 9:00am - 4:00pm<br>Wed: 9:00am - 1:00pm<br>Thu: 9:00am - 6:00pm<br>Sat: 10:00am - 2:00pm","address2":"(at W 166th St and St. Nicholas Ave)","city":"New York","address1":"1112 St. Nicholas Ave","name":"Manhattan - Neighborhood Trust Federal Credit Union","type":"permanent"}},{"type":"Feature","id":"112","geometry":{"type":"Point","coordinates":[-8229405.178199921,4992329.10070869]},"properties":{"zip":"10040","hours":"","address2":"","city":"New York","address1":"175 Dyckman Street","name":"Popular Community Bank","type":"financial"}},{"type":"Feature","id":"119","geometry":{"type":"Point","coordinates":[-8230783.039195992,4989113.152489926]},"properties":{"zip":"10032","hours":"","address2":"","city":"New York","address1":"1200 St. Nicholas Avenue","name":"Popular Community Bank","type":"financial"}},{"type":"Feature","id":"121","geometry":{"type":"Point","coordinates":[-8230318.735734521,4990212.2341330815]},"properties":{"zip":"10033","hours":"","address2":"","city":"New York","address1":"615 West 181st Street ","name":"Popular Community Bank","type":"financial"}},{"type":"Feature","id":"68","geometry":{"type":"Point","coordinates":[-8227397.142882555,4990563.032154108]},"properties":{"zip":"10453","hours":"","address2":"","city":"Bronx","address1":"20 East 179th Street, LL","name":"Bethex Federal Credit Union","type":"financial"}},{"type":"Feature","id":"24","geometry":{"type":"Point","coordinates":[-8227894.892350794,4997438.553261473]},"properties":{"zip":"10471","address2":"","city":"Bronx","address1":"W 249th St","name":"Wave Hill","type":"cultural"}},{"type":"Feature","id":"54","geometry":{"type":"Point","coordinates":[-8227203.857700081,4990693.7033943925]},"properties":{"zip":"10453","hours":"","address2":"","city":"Bronx","address1":"94 East Burnside Avenue","name":"Amalgamated Bank","type":"financial"}},{"type":"Feature","id":"100","geometry":{"type":"Point","coordinates":[-8225932.2539159125,4992075.455278873]},"properties":{"zip":"10458","hours":"","address2":"","city":"Bronx","address1":"301 East Fordham Road","name":"Popular Community Bank","type":"financial"}},{"type":"Feature","id":"3","geometry":{"type":"Point","coordinates":[-8229235.29853993,4985350.921889644]},"properties":{"zip":"10451","hours":"Mon, Tue, Wed, Thu, Fri: 9:00am - 7:00pm<br>Sat, Sun: 10:00am - 5:00pm","address2":"(entrance on Morris Avenue)","city":"Bronx","address1":"234 East 149th Street, 2nd Floor","name":"Bronx - Lincoln Hospital","type":"permanent"}},{"type":"Feature","id":"89","geometry":{"type":"Point","coordinates":[-8228637.656721398,4985364.920383311]},"properties":{"zip":"10451","hours":"","address2":"","city":"Bronx","address1":"560 Courtlandt Avenue","name":"Municipal Credit Union","type":"financial"}},{"type":"Feature","id":"2","geometry":{"type":"Point","coordinates":[-8227959.627209469,4985736.106753111]},"properties":{"zip":"10455","hours":"Mon, Tue, Wed, Thu, Fri: 8:30am - 4:30pm","address2":"(at E156th St and Third Ave)","city":"Bronx","address1":"3030 Third Avenue, 2nd Floor","name":"Bronx - Department of Finance","type":"permanent"}},{"type":"Feature","id":"75","geometry":{"type":"Point","coordinates":[-8231267.712426894,4986226.168526128]},"properties":{"zip":"10039","hours":"","address2":"","city":"New York","address1":"300 West 145th Street","name":"Carver Federal Savings Bank","type":"financial"}},{"type":"Feature","id":"22","geometry":{"type":"Point","coordinates":[-8228709.755970873,4987448.028798268]},"properties":{"zip":"10456","address2":"","city":"Bronx","address1":"1040 Grand Concourse","name":"Bronx Museum of the Arts","type":"cultural"}},{"type":"Feature","id":"97","geometry":{"type":"Point","coordinates":[-8228298.12431972,4985467.550346083]},"properties":{"zip":"10455","hours":"","address2":"","city":"Bronx","address1":"2923 3rd Avenue","name":"Popular Community Bank","type":"financial"}},{"type":"Feature","id":"126","geometry":{"type":"Point","coordinates":[-8228789.983703282,4988140.662694525]},"properties":{"zip":"10452","hours":"","address2":"","city":"Bronx","address1":"69 East 167th Street","name":"Spring Bank","type":"financial"}},{"type":"Feature","id":"96","geometry":{"type":"Point","coordinates":[-8230920.148581415,4988650.009708073]},"properties":{"zip":"10032","hours":"","address2":"","city":"New York","address1":"1112 St. Nicholas Avenue","name":"Neighborhood Trust Federal Credit Union","type":"financial"}},{"type":"Feature","id":"125","geometry":{"type":"Point","coordinates":[-8228150.026204085,4977690.190082718]},"properties":{"zip":"11103","hours":"","address2":"","city":"Astoria ","address1":"28-36 Steinway Street","name":"Popular Community Bank","type":"financial"}},{"type":"Feature","id":"44","geometry":{"type":"Point","coordinates":[-8229166.174033779,4976473.304385684]},"properties":{"zip":"11106","address2":"","city":"Queens","address1":"36-01 35th Ave","name":"Museum of the Moving Image","type":"cultural"}},{"type":"Feature","id":"130","geometry":{"type":"Point","coordinates":[-8231177.300545687,4976358.280118454]},"properties":{"zip":"11101","hours":"","address2":"","city":"Long Island City ","address1":"13-03B 40th Avenue","name":"Urban Upbound Federal Credit Union","type":"financial"}},{"type":"Feature","id":"67","geometry":{"type":"Point","coordinates":[-8230685.8786314465,4976946.456612434]},"properties":{"zip":"11106","hours":"","address2":"","city":"Long Island City ","address1":"36-16 21st Street","name":"Amalgamated Bank","type":"financial"}},{"type":"Feature","id":"83","geometry":{"type":"Point","coordinates":[-8231403.123621155,4981387.962962418]},"properties":{"zip":"10029","hours":"","address2":"","city":"New York","address1":"237 East 104th Street","name":"Lower East Side People's Federal Credit Union","type":"financial"}},{"type":"Feature","id":"14","geometry":{"type":"Point","coordinates":[-8231174.828798446,4982533.999406951]},"properties":{"zip":"10029","hours":"Mon - Fri: 9:00am - 5:00pm","address2":"","city":"New York","address1":"158 East 115th Street, Room 220","name":"Manhattan - East Harlem Health Center","type":"permanent"}},{"type":"Feature","id":"116","geometry":{"type":"Point","coordinates":[-8231095.57175422,4982611.439734728]},"properties":{"zip":"10029","hours":"","address2":"","city":"New York","address1":"164 East 116th Street ","name":"Popular Community Bank","type":"financial"}},{"type":"Feature","id":"78","geometry":{"type":"Point","coordinates":[-8230665.972437094,4983454.728257342]},"properties":{"zip":"10035","hours":"","address2":"","city":"New York","address1":"160 East 125th Street","name":"Carver Federal Savings Bank","type":"financial"}},{"type":"Feature","id":"82","geometry":{"type":"Point","coordinates":[-8232058.9242044985,4983993.302135523]},"properties":{"zip":"10027","hours":"","address2":"","city":"New York","address1":"2052 Adam Clayton Powell Jr. Boulevard","name":"Lower East Side People's Federal Credit Union","type":"financial"}},{"type":"Feature","id":"77","geometry":{"type":"Point","coordinates":[-8231488.299267447,4984026.46202415]},"properties":{"zip":"10027","hours":"","address2":"","city":"New York","address1":"75 West 125th Street","name":"Carver Federal Savings Bank","type":"financial"}},{"type":"Feature","id":"39","geometry":{"type":"Point","coordinates":[-8231823.220828682,4984098.925815745]},"properties":{"zip":"10027","address2":"","city":"New York","address1":"144 W 125th St","name":"The Studio Museum in Harlem","type":"cultural"}},{"type":"Feature","id":"91","geometry":{"type":"Point","coordinates":[-8232308.838141912,4984365.633024749]},"properties":{"zip":"10027","hours":"","address2":"","city":"New York","address1":"280 St. Nicholas Avenue","name":"Municipal Credit Union","type":"financial"}},{"type":"Feature","id":"117","geometry":{"type":"Point","coordinates":[-8232002.845536708,4984313.384981294]},"properties":{"zip":"10027","hours":"","address2":"","city":"New York","address1":"231 West 125th Street","name":"Popular Community Bank","type":"financial"}},{"type":"Feature","id":"61","geometry":{"type":"Point","coordinates":[-8232968.399235153,4985073.657784277]},"properties":{"zip":"10027","hours":"","address2":"","city":"New York","address1":"564 West 125th Street","name":"Amalgamated Bank","type":"financial"}},{"type":"Feature","id":"11","geometry":{"type":"Point","coordinates":[-8232565.482340736,4985754.948091606]},"properties":{"zip":"10031","hours":"Mon, Tue, Wed, Thu, Fri: 8:30am - 5:00pm","address2":"(at W 135th St and Broadway)","city":"New York","address1":"530 West 135th Street","name":"Manhattan - IDNYC Northern Manhattan Center","type":"permanent"}},{"type":"Feature","id":"114","geometry":{"type":"Point","coordinates":[-8232060.149303792,4986781.439539155]},"properties":{"zip":"10031","hours":"","address2":"","city":"New York","address1":"3540 Broadway","name":"Popular Community Bank","type":"financial"}},{"type":"Feature","id":"30","geometry":{"type":"Point","coordinates":[-8234754.645871699,4980144.623896179]},"properties":{"zip":"10024","address2":"","city":"New York","address1":"Central Park W & 79th St","name":"American Museum of Natural History","type":"cultural"}},{"type":"Feature","id":"34","geometry":{"type":"Point","coordinates":[-8233807.163034299,4980312.158511903]},"properties":{"zip":"10028","address2":"","city":"New York","address1":"1000 5th Ave","name":"Metropolitan Museum of Art","type":"cultural"}},{"type":"Feature","id":"110","geometry":{"type":"Point","coordinates":[-8234003.58387267,4981771.46681846]},"properties":{"zip":"10025","hours":"","address2":"","city":"New York","address1":"90 West 96th Street ","name":"Popular Community Bank","type":"financial"}},{"type":"Feature","id":"76","geometry":{"type":"Point","coordinates":[-8231910.614379311,4983184.698542202]},"properties":{"zip":"10026","hours":"","address2":"","city":"New York","address1":"142 Malcolm X Boulevard","name":"Carver Federal Savings Bank","type":"financial"}},{"type":"Feature","id":"36","geometry":{"type":"Point","coordinates":[-8232289.740996636,4981784.395315189]},"properties":{"zip":"10029","address2":"","city":"New York","address1":"1220 5th Ave","name":"Museum of the City of New York","type":"cultural"}},{"type":"Feature","id":"32","geometry":{"type":"Point","coordinates":[-8232228.98683575,4981871.535158969]},"properties":{"zip":"10029","address2":"","city":"New York","address1":"1230 5th Ave","name":"El Museo del Barrio","type":"cultural"}},{"type":"Feature","id":"127","geometry":{"type":"Point","coordinates":[-8232959.691143533,4983100.901224963]},"properties":{"zip":"10026","hours":"","address2":"","city":"New York","address1":"2049 8th Avenue","name":"Spring Bank","type":"financial"}},{"type":"Feature","id":"115","geometry":{"type":"Point","coordinates":[-8233853.742272354,4983554.581492152]},"properties":{"zip":"10025","hours":"","address2":"","city":"New York","address1":"2852 Broadway","name":"Popular Community Bank","type":"financial"}},{"type":"Feature","id":"12","geometry":{"type":"Point","coordinates":[-8235587.211540229,4975798.353286605]},"properties":{"zip":"10016","hours":"Mon, Tue, Wed, Thu, Fri: 8:00am - 8:00pm<br>Sat, Sun: 10:00am - 6:00pm","address2":"(at E 40th St and 5th Ave)","city":"New York","address1":"455 5th Ave","name":"Manhattan - Mid-Manhattan Library","type":"permanent"}},{"type":"Feature","id":"62","geometry":{"type":"Point","coordinates":[-8232366.077671765,4976654.260605375]},"properties":{"zip":"10044","hours":"","address2":"","city":"New York","address1":"619 Main Street","name":"Amalgamated Bank","type":"financial"}},{"type":"Feature","id":"118","geometry":{"type":"Point","coordinates":[-8235152.989653489,4976974.041620821]},"properties":{"zip":"10019","hours":"","address2":"","city":"New York","address1":"11 West 51st Street","name":"Popular Community Bank","type":"financial"}},{"type":"Feature","id":"38","geometry":{"type":"Point","coordinates":[-8235350.9502426395,4977576.358786776]},"properties":{"zip":"10019","address2":"","city":"New York","address1":"130 W 56th St","name":"New York City Center","type":"cultural"}},{"type":"Feature","id":"59","geometry":{"type":"Point","coordinates":[-8235692.887604426,4977776.928806114]},"properties":{"zip":"10019","hours":"","address2":"","city":"New York","address1":"1745 Broadway","name":"Amalgamated Bank","type":"financial"}},{"type":"Feature","id":"37","geometry":{"type":"Point","coordinates":[-8235834.165346878,4978738.341689762]},"properties":{"zip":"10023","address2":"","city":"New York","address1":"20 Lincoln Center Plaza","name":"New York City Ballet","type":"cultural"}},{"type":"Feature","id":"33","geometry":{"type":"Point","coordinates":[-8235845.393472759,4978875.115844055]},"properties":{"zip":"10023","address2":"","city":"New York","address1":"10 Lincoln Center Plaza","name":"Lincoln Center for the Performing Arts, Inc.","type":"cultural"}},{"type":"Feature","id":"31","geometry":{"type":"Point","coordinates":[-8235420.014361859,4977817.211825723]},"properties":{"zip":"10019","address2":"","city":"New York","address1":"57th Street and Seventh Avenue","name":"Carnegie Hall","type":"cultural"}},{"type":"Feature","id":"93","geometry":{"type":"Point","coordinates":[-8223243.410238077,4973268.590279091]},"properties":{"zip":"11373","hours":"","address2":"","city":"Elmhurst","address1":"90-15 Queens Boulevard","name":"Municipal Credit Union","type":"financial"}},{"type":"Feature","id":"124","geometry":{"type":"Point","coordinates":[-8226925.48947082,4968218.929766781]},"properties":{"zip":"11385","hours":"","address2":"","city":"Ridgewood","address1":"918 Seneca Avenue","name":"Popular Community Bank","type":"financial"}},{"type":"Feature","id":"42","geometry":{"type":"Point","coordinates":[-8215168.066686315,4968730.043591132]},"properties":{"zip":"11432","address2":"","city":"Jamaica","address1":"161-04 Jamaica Ave","name":"Jamaica Center for Arts & Learning","type":"cultural"}},{"type":"Feature","id":"79","geometry":{"type":"Point","coordinates":[-8215307.983631711,4968643.308624541]},"properties":{"zip":"11433","hours":"","address2":"","city":"Jamaica","address1":"158-45 Archer Avenue","name":"Carver Federal Savings Bank","type":"financial"}},{"type":"Feature","id":"84","geometry":{"type":"Point","coordinates":[-8217245.646926231,4968988.953950331]},"properties":{"zip":"11435","hours":"","address2":"","city":"Briarwood","address1":"139-30 Queens Boulevard","name":"Melrose Credit Union","type":"financial"}},{"type":"Feature","id":"16","geometry":{"type":"Point","coordinates":[-8214777.202327557,4969336.944392547]},"properties":{"zip":"11432","hours":"Mon, Wed, Thu: 9:00am - 9:00pm<br>Tue: 1:00pm - 9:00pm<br>Fri, Sat: 9:00am - 7:00pm<br>Sun: 12:00pm - 5:00pm","address2":"(at 89th Ave and Merrick Blvd)","city":"Jamaica","address1":"89-11 Merrick Blvd","name":"Queens - Central Library in Jamaica","type":"permanent"}},{"type":"Feature","id":"47","geometry":{"type":"Point","coordinates":[-8220071.313817802,4974416.276287102]},"properties":{"zip":"11368","address2":"","city":"Queens","address1":"Flushing Meadows Corona Park","name":"Queens Museum","type":"cultural"}},{"type":"Feature","id":"66","geometry":{"type":"Point","coordinates":[-8216502.178230578,4973027.628763846]},"properties":{"zip":"11365","hours":"","address2":"","city":"Flushing","address1":"158-11 Harry Van Arsdale Jr. Avenue","name":"Amalgamated Bank","type":"financial"}},{"type":"Feature","id":"45","geometry":{"type":"Point","coordinates":[-8220202.202545177,4975133.970825948]},"properties":{"zip":"11368","address2":"","city":"Corona","address1":"47-01 111th St","name":"New York Hall of Science","type":"cultural"}},{"type":"Feature","id":"86","geometry":{"type":"Point","coordinates":[-8228539.589885344,4957224.932941158]},"properties":{"zip":"11234","hours":"","address2":"","city":"Brooklyn","address1":"2142 Ralph Avenue","name":"Municipal Credit Union","type":"financial"}},{"type":"Feature","id":"108","geometry":{"type":"Point","coordinates":[-8228036.479426937,4963594.047952018]},"properties":{"zip":"11212","hours":"","address2":"","city":"Brooklyn","address1":"1620 Pitkin Avenue","name":"Popular Community Bank","type":"financial"}},{"type":"Feature","id":"103","geometry":{"type":"Point","coordinates":[-8227893.625795624,4958757.837068434]},"properties":{"zip":"11236","hours":"","address2":"","city":"Brooklyn","address1":"8020 Flatlands Ave","name":"Popular Community Bank","type":"financial"}},{"type":"Feature","id":"109","geometry":{"type":"Point","coordinates":[-8228352.648699196,4957294.8044195]},"properties":{"zip":"11234","hours":"","address2":"","city":"Brooklyn","address1":"2095 Ralph Avenue","name":"Popular Community Bank","type":"financial"}},{"type":"Feature","id":"95","geometry":{"type":"Point","coordinates":[-8210381.35248058,4965172.825257941]},"properties":{"zip":"11413","hours":"","address2":"","city":"Springfield Gardens","address1":"134-66 Springfield Boulevard ","name":"Municipal Credit Union","type":"financial"}},{"type":"Feature","id":"9","geometry":{"type":"Point","coordinates":[-8228283.498007893,4967970.057812227]},"properties":{"zip":"11237","hours":"Mon, Tue, Wed, Thu: 9:30am - 7:00pm<br>Fri: 11:00am - 7:00pm","address2":"","city":"Brooklyn","address1":"301 Grove Street","name":"Brooklyn - Make the Road New York ","type":"permanent"}},{"type":"Feature","id":"80","geometry":{"type":"Point","coordinates":[-8212914.2190029975,4966614.038138121]},"properties":{"zip":"11434","hours":"","address2":"","city":"Jamaica","address1":"115-02 Merrick Boulevard","name":"Carver Federal Savings Bank","type":"financial"}},{"type":"Feature","id":"69","geometry":{"type":"Point","coordinates":[-8228238.88958945,4968018.376609732]},"properties":{"zip":"11237","hours":"","address2":"","city":"Brooklyn ","address1":"1474 Myrtle Avenue","name":"Brooklyn Cooperative Federal Credit Union","type":"financial"}},{"type":"Feature","id":"107","geometry":{"type":"Point","coordinates":[-8231255.577621465,4968469.799279457]},"properties":{"zip":"11206","hours":"","address2":"","city":"Brooklyn","address1":"15-25A Graham Avenue","name":"Popular Community Bank","type":"financial"}},{"type":"Feature","id":"111","geometry":{"type":"Point","coordinates":[-8236203.85981689,4970908.036662808]},"properties":{"zip":"10002","hours":"","address2":"","city":"New York","address1":"134 Delancey Street","name":"Popular Community Bank","type":"financial"}},{"type":"Feature","id":"120","geometry":{"type":"Point","coordinates":[-8235442.975367707,4973996.79133997]},"properties":{"zip":"10010","hours":"","address2":"","city":"New York","address1":"441 2nd Avenue","name":"Popular Community Bank","type":"financial"}},{"type":"Feature","id":"43","geometry":{"type":"Point","coordinates":[-8231656.719995464,4974933.225310941]},"properties":{"zip":"11101","address2":"","city":"Long Island City","address1":"22-25 Jackson Ave","name":"MoMA PS1","type":"cultural"}},{"type":"Feature","id":"64","geometry":{"type":"Point","coordinates":[-8235715.350179272,4973906.519191679]},"properties":{"zip":"10010","hours":"","address2":"","city":"New York","address1":"301 3rd Avenue","name":"Amalgamated Bank","type":"financial"}},{"type":"Feature","id":"19","geometry":{"type":"Point","coordinates":[-8230422.76917541,4974648.468077688]},"properties":{"zip":"11101","hours":"Mon, Tue, Wed, Thu, Fri, Sat: 9:00am - 7:00pm","address2":"(at 31st Street and Thomson Ave)","city":"Long Island City","address1":"31-10 Thomson Avenue, Building E - Room E116","name":"Queens - LaGuardia Community College","type":"permanent"}},{"type":"Feature","id":"81","geometry":{"type":"Point","coordinates":[-8235708.590158016,4971524.362645333]},"properties":{"zip":"10009","hours":"","address2":"","city":"New York","address1":"37 Avenue B","name":"Lower East Side People's Federal Credit Union","type":"financial"}},{"type":"Feature","id":"113","geometry":{"type":"Point","coordinates":[-8235779.706554012,4971354.64776101]},"properties":{"zip":"10002","hours":"","address2":"","city":"New York","address1":"310 East Houston Street","name":"Popular Community Bank","type":"financial"}},{"type":"Feature","id":"29","geometry":{"type":"Point","coordinates":[-8233607.737342975,4963869.072012975]},"properties":{"zip":"11238","address2":"","city":"Brooklyn","address1":"200 Eastern Pkwy","name":"Brooklyn Museum","type":"cultural"}},{"type":"Feature","id":"4","geometry":{"type":"Point","coordinates":[-8234087.996667505,4964106.539366148]},"properties":{"zip":"11238","hours":"Mon, Tue, Wed, Thu: 9:00am - 9:00pm<br>Fri, Sat: 9:00am - 6:00pm<br>Sun: 1:00pm - 5:00pm","address2":"(at Eastern Parkway and Flatbush Ave)","city":"Brooklyn","address1":"10 Grand Army Plaza","name":"Brooklyn - Central Library at Grand Army Plaza","type":"permanent"}},{"type":"Feature","id":"28","geometry":{"type":"Point","coordinates":[-8231399.871901063,4964437.546182901]},"properties":{"zip":"11213","address2":"","city":"Brooklyn","address1":"145 Brooklyn Ave","name":"Brooklyn Children's Museum","type":"cultural"}},{"type":"Feature","id":"72","geometry":{"type":"Point","coordinates":[-8231495.694576399,4965222.429817985]},"properties":{"zip":"11216","hours":"","address2":"","city":"Brooklyn ","address1":"1392 Fulton Street","name":"Carver Federal Savings Bank","type":"financial"}},{"type":"Feature","id":"26","geometry":{"type":"Point","coordinates":[-8235159.740722572,4966204.367396231]},"properties":{"zip":"11217","address2":"","city":"Brooklyn","address1":"30 Lafayette Ave","name":"Brooklyn Academy of Music","type":"cultural"}},{"type":"Feature","id":"57","geometry":{"type":"Point","coordinates":[-8232305.972680042,4965297.445966613]},"properties":{"zip":"11216","hours":"","address2":"","city":"Brooklyn","address1":"1212 Fulton Street","name":"Amalgamated Bank","type":"financial"}},{"type":"Feature","id":"70","geometry":{"type":"Point","coordinates":[-8231299.479737581,4967013.367124181]},"properties":{"zip":"11221","hours":"","address2":"","city":"Brooklyn ","address1":"834 Dekalb Avenue","name":"Brooklyn Cooperative Federal Credit Union","type":"financial"}},{"type":"Feature","id":"71","geometry":{"type":"Point","coordinates":[-8235060.67361221,4965918.256636217]},"properties":{"zip":"11217","hours":"","address2":"","city":"Brooklyn ","address1":"4 Hanson Place","name":"Carver Federal Savings Bank","type":"financial"}},{"type":"Feature","id":"87","geometry":{"type":"Point","coordinates":[-8231856.568729617,4958326.971155669]},"properties":{"zip":"11210","hours":"","address2":"","city":"Brooklyn","address1":"1560 Flatbush Avenue","name":"Municipal Credit Union","type":"financial"}},{"type":"Feature","id":"85","geometry":{"type":"Point","coordinates":[-8235942.504372711,4949696.509293208]},"properties":{"zip":"11224","hours":"","address2":"","city":"Brooklyn","address1":"1904 Surf Avenue","name":"Municipal Credit Union","type":"financial"}},{"type":"Feature","id":"5","geometry":{"type":"Point","coordinates":[-8234949.764258275,4950350.797692373]},"properties":{"zip":"11224","hours":"Mon, Tue, Wed, Thu, Fri: 8:30am - 5:00pm","address2":"","city":"Brooklyn","address1":"2865 West 8th Street, 1st Floor","name":"Brooklyn - Coney Island IDNYC Center","type":"permanent"}},{"type":"Feature","id":"74","geometry":{"type":"Point","coordinates":[-8233049.222893945,4961127.025347402]},"properties":{"zip":"11226","hours":"","address2":"","city":"Brooklyn ","address1":"833 Flatbush Avenue","name":"Carver Federal Savings Bank","type":"financial"}},{"type":"Feature","id":"73","geometry":{"type":"Point","coordinates":[-8232154.422746423,4962864.113148049]},"properties":{"zip":"11225","hours":"","address2":"","city":"Brooklyn ","address1":"1009 Nostrand Avenue","name":"Carver Federal Savings Bank","type":"financial"}},{"type":"Feature","id":"106","geometry":{"type":"Point","coordinates":[-8229995.859885815,4963683.606602665]},"properties":{"zip":"11213","hours":"","address2":"","city":"Brooklyn","address1":"1117 Eastern Parkway","name":"Popular Community Bank","type":"financial"}},{"type":"Feature","id":"105","geometry":{"type":"Point","coordinates":[-8232094.092928152,4963823.206619564]},"properties":{"zip":"11216","hours":"","address2":"","city":"Brooklyn","address1":"539 Eastern Parkway","name":"Popular Community Bank","type":"financial"}},{"type":"Feature","id":"27","geometry":{"type":"Point","coordinates":[-8233607.737342975,4963869.072012975]},"properties":{"zip":"11225","address2":"","city":"Brooklyn","address1":"990 Washington Ave","name":"Brooklyn Botanic Garden","type":"cultural"}},{"type":"Feature","id":"10","geometry":{"type":"Point","coordinates":[-8238530.883679672,4969463.37417323]},"properties":{"zip":"10038","hours":"Mon, Tue, Wed, Thu, Fri: 8:30am - 4:30pm","address2":"(at John St and William St)","city":"New York","address1":"66 John St, 2nd Floor","name":"Manhattan - Department of Finance","type":"permanent"}},{"type":"Feature","id":"92","geometry":{"type":"Point","coordinates":[-8238061.539904557,4970251.4498345265]},"properties":{"zip":"10007","hours":"","address2":"","city":"New York","address1":"2 Lafayette Street","name":"Municipal Credit Union","type":"financial"}},{"type":"Feature","id":"60","geometry":{"type":"Point","coordinates":[-8236886.755617011,4973388.912434419]},"properties":{"zip":"10003","hours":"","address2":"","city":"New York","address1":"10 East 14th Street","name":"Amalgamated Bank","type":"financial"}},{"type":"Feature","id":"40","geometry":{"type":"Point","coordinates":[-8236724.56471559,4972445.371540379]},"properties":{"zip":"10003","address2":"","city":"New York","address1":"425 Lafayette St","name":"The Public Theater","type":"cultural"}},{"type":"Feature","id":"63","geometry":{"type":"Point","coordinates":[-8236992.298751806,4974881.812389411]},"properties":{"zip":"10001","hours":"","address2":"","city":"New York","address1":"275 7th Avenue","name":"Amalgamated Bank","type":"financial"}},{"type":"Feature","id":"129","geometry":{"type":"Point","coordinates":[-8238227.469988372,4971736.198619635]},"properties":{"zip":"10013","hours":"","address2":"","city":"New York","address1":"121 6th Avenue","name":"University Settlement Federal Credit Union","type":"financial"}},{"type":"Feature","id":"128","geometry":{"type":"Point","coordinates":[-8236586.934573656,4971208.425632559]},"properties":{"zip":"10002","hours":"","address2":"","city":"New York","address1":"184 Eldridge Street","name":"University Settlement Federal Credit Union","type":"financial"}},{"type":"Feature","id":"15","geometry":{"type":"Point","coordinates":[-8237729.45838197,4970555.406373756]},"properties":{"zip":"10013","hours":"Mon, Wed, Thu, Fri: 9:00am - 5:00pm<br>Tue: 10:00am - 6:00pm","address2":"","city":"New York","address1":"100 Centre Street, 14th Floor","name":"Manhattan - IDNYC Centre Street Office","type":"permanent"}},{"type":"Feature","id":"52","geometry":{"type":"Point","coordinates":[-8246287.953979764,4960026.87168385]},"properties":{"zip":"10301","address2":"","city":"Staten Island","address1":"75 Stuyvesant Pl","name":"Staten Island Museum","type":"cultural"}},{"type":"Feature","id":"58","geometry":{"type":"Point","coordinates":[-8238504.80256844,4960554.192194391]},"properties":{"zip":"11220","hours":"","address2":"","city":"Brooklyn","address1":"4502 5th Avenue","name":"Amalgamated Bank","type":"financial"}},{"type":"Feature","id":"88","geometry":{"type":"Point","coordinates":[-8236305.55300217,4967283.328363742]},"properties":{"zip":"11201","hours":"","address2":"(Mezzanine Level)","city":"Brooklyn","address1":"350 Jay Street","name":"Municipal Credit Union","type":"financial"}},{"type":"Feature","id":"6","geometry":{"type":"Point","coordinates":[-8236588.187037681,4967037.141508571]},"properties":{"zip":"11201","hours":"Mon, Tue, Wed, Thu, Fri: 8:30am - 4:30pm","address2":"(at Joralemon St and Court St)","city":"Brooklyn","address1":"210 Joralemon Street, 1st Floor","name":"Brooklyn - Department of Finance","type":"permanent"}},{"type":"Feature","id":"7","geometry":{"type":"Point","coordinates":[-8238586.279031135,4960989.122785907]},"properties":{"zip":"11232","hours":"Mon-Sat: 9:00am - 6:00pm","address2":"","city":"Brooklyn","address1":"345 43rd Street","name":"Brooklyn - St. Michael's Church","type":"permanent"}},{"type":"Feature","id":"104","geometry":{"type":"Point","coordinates":[-8236711.8283194145,4966999.274432657]},"properties":{"zip":"11201","hours":"","address2":"","city":"Brooklyn","address1":"66 Court Street","name":"Popular Community Bank","type":"financial"}},{"type":"Feature","id":"35","geometry":{"type":"Point","coordinates":[-8239712.877283349,4969071.412533252]},"properties":{"zip":"10280","address2":"","city":"New York","address1":"36 Battery Pl","name":"Museum of Jewish Heritage","type":"cultural"}},{"type":"Feature","id":"65","geometry":{"type":"Point","coordinates":[-8239008.648571033,4969144.088092994]},"properties":{"zip":"10004","hours":"","address2":"","city":"New York","address1":"52 Broadway","name":"Amalgamated Bank","type":"financial"}},{"type":"Feature","id":"21","geometry":{"type":"Point","coordinates":[-8246352.934911484,4959572.992122796]},"properties":{"zip":"10301","hours":"Mon, Tue, Wed, Thu, Fri: 8:30am - 4:30pm","address2":"(at St Marks Pl and Hyatt St)","city":"Staten Island","address1":"350 St. Marks Place, 1st Floor","name":"Staten Island - Department of Finance","type":"permanent"}},{"type":"Feature","id":"53","geometry":{"type":"Point","coordinates":[-8250507.783828419,4957204.977589879]},"properties":{"zip":"10310","address2":"","city":"Staten Island","address1":"614 Broadway","name":"Staten Island Zoo","type":"cultural"}},{"type":"Feature","id":"94","geometry":{"type":"Point","coordinates":[-8249942.466270333,4949004.6349260695]},"properties":{"zip":"10306","hours":"","address2":"","city":"Staten Island","address1":"2546 Hylan Boulevard","name":"Municipal Credit Union","type":"financial"}},{"type":"Feature","id":"51","geometry":{"type":"Point","coordinates":[-8253878.02381071,4949277.610881404]},"properties":{"zip":"10306","address2":"","city":"Staten Island","address1":"441 Clarke Ave","name":"Staten Island Historical Society and Historic Richmond Town","type":"cultural"}},{"type":"Feature","id":"8","geometry":{"type":"Point","coordinates":[-8237884.194434728,4959708.166581067]},"properties":{"zip":"11220","hours":"Tue-Sat: 9:00am - 5:00pm","address2":"","city":"Brooklyn","address1":"807 48th Street, 2nd Floor","name":"Brooklyn - Asian Americans for Equality","type":"permanent"}},{"type":"Feature","id":"102","geometry":{"type":"Point","coordinates":[-8238993.725463508,4959935.59077723]},"properties":{"zip":"11220","hours":"","address2":"","city":"Brooklyn","address1":"5216 5th Avenue","name":"Popular Community Bank","type":"financial"}},{"type":"Feature","id":"49","geometry":{"type":"Point","coordinates":[-8248969.88117838,4959980.221234599]},"properties":{"zip":"10301","address2":"","city":"Staten Island","address1":"1000 Richmond Terrace","name":"Snug Harbor Cultural Center & Botanical Garden","type":"cultural"}},{"type":"Feature","id":"50","geometry":{"type":"Point","coordinates":[-8248969.88117838,4959980.221234599]},"properties":{"zip":"10301","address2":"","city":"Staten Island","address1":"1000 Richmond Terrace","name":"Staten Island Children's Museum","type":"cultural"}}]}